Air Quality Station EoI Code,Latitude,Longitude,COMUNE,green_ratio
IT1034A,45.6608,9.1569,Meda,0.2649714379082952
IT0480A,45.5339,9.2364,Sesto San Giovanni,0.02247264835549155
IT0705A,45.4628,9.1958,Milano,0.22148593402785674
IT1743A,45.5811,9.2744,Monza,0.17298139188223222
IT0592A,45.5225,9.0447,Rho,0.3922970533624816
IT1010A,45.4675,8.8925,Magenta,0.7264277275750912
IT1016A,45.4697,9.1981,Milano,0.22148593402785674
IT0706A,45.4828,9.3275,Pioltello,0.5415117147415058
IT0593A,45.5092,9.0903,Pero,0.1682441780404459
IT0623A,45.4322,9.1053,Corsico,0.06268390415743391
IT0694A,45.5514,9.2281,Cinisello Balsamo,0.16037606210587746
IT0761A,45.4492,9.1825,Milano,0.22148593402785674
IT1203A,45.5467,8.8486,Arconate,0.7632000492362337
IT0545A,37.08,15.2717,Siracusa,0.8097655845449699
IT0477A,45.4956,9.1914,Milano,0.22148593402785674
IT1692A,45.4783,9.2358,Milano,0.22148593402785674
IT1290A,45.3953,9.2828,San Giuliano Milanese,0.7690298548689336
IT1294A,45.5258,8.7367,Turbigo,0.618439242960338
IT2098A,45.6022,9.2761,Monza,0.17298139188223222
IT1792A,45.5281,9.5033,Cassano d'Adda,0.7449415308036947
IT1464A,45.4975,9.5564,Casirate d'Adda,0.834105998756084
IT1334A,46.4955,11.34,Bolzano/Bozen,0.7108591774596318
IT0505A,46.5897,11.4332,Renon/Ritten,0.9854168865049765
IT0707A,45.6903,9.6439,Bergamo,0.5042676573215039
IT2096A,46.4992,11.342,Bolzano/Bozen,0.7108591774596318
IT0524A,45.5422,9.5164,Cassano d'Adda,0.7449415308036947
IT0591A,45.8924,11.0394,Rovereto,0.8070927097072179
IT0507A,46.7149,11.6541,Bressanone/Brixen,0.948274830336153
IT0499A,46.6195,10.8591,Laces/Latsch,0.9777300638651666
IT1037A,46.0629,11.1262,Trento,0.8121492783208608
IT1335A,46.662,11.1616,Merano/Meran,0.7019846544593623
IT1191A,46.0825,10.958,Vallelaghi,0.9821273340521708
IT1678A,46.6792,11.6211,Velturno/Feldthurns,0.9856192920056507
IT1696A,46.4348,11.3401,Laives/Leifers,0.8731673321084124
IT0502A,46.4823,11.3418,Bolzano/Bozen,0.7108591774596318
IT0508A,46.7974,11.944,Brunico/Bruneck,0.8950322574820775
IT0778A,45.5183,9.5914,Treviglio,0.7553214753460342
IT0703A,46.0518,11.4539,Borgo Valsugana,0.9485747519359675
IT1859A,46.1043,11.1102,Trento,0.8121492783208608
IT1852A,46.2673,11.2271,Cortina sulla strada del vino/Kurtinig an der Weinstraße,0.8715307888518058
IT1930A,46.1968,11.1134,Mezzolombardo,0.8573480370344099
IT0742A,45.6394,10.3858,Odolo,0.8131895656170813
IT1876A,45.6833,9.4667,Calusco d'Adda,0.5950430799789362
IT2062A,45.6439,9.6147,Dalmine,0.4021110600769361
IT1463A,45.6206,9.6115,Osio Sotto,0.616092759874191
IT0997A,45.6957,9.6617,Bergamo,0.5042676573215039
IT0740A,45.655,10.2008,Sarezzo,0.8191216194510235
IT1737A,45.5153,10.2194,Brescia,0.4874106108838972
IT0594A,45.5408,10.2236,Brescia,0.4874106108838972
IT0753A,45.8915,10.8445,Riva del Garda,0.7305107514439576
IT0743A,45.4633,10.4808,Lonato del Garda,0.9048939538225907
IT0741A,45.2489,10.2994,Gambara,0.9547666156031964
IT1388A,45.4108,10.6919,Ponti sul Mincio,0.9395357706668193
IT1392A,45.0514,11.2044,Borgocarbonara,0.8846393134274176
IT1393A,45.1572,10.8242,Mantova,0.5431692216939167
IT1865A,44.9969,11.0708,Schivenoglia,0.961855008960621
IT1385A,45.8739,10.1775,Darfo Boario Terme,0.8853826564359722
IT0692A,45.1017,8.9056,Sannazzaro de' Burgondi,0.8297050050220529
IT0846A,45.5047,10.3131,Rezzato,0.6680348882593649
IT1251A,45.5386,10.2319,Brescia,0.4874106108838972
IT0615A,37.1425,15.2025,Priolo Gargallo,0.7496742652980837
IT0709A,45.1444,10.8033,Mantova,0.5431692216939167
IT0912A,45.1939,9.1647,Pavia,0.7358809818393893
IT1874A,45.2811,8.7547,Parona,0.8343739268368818
IT2079A,45.3044,8.8458,Vigevano,0.8141347433535575
IT1868A,45.1606,10.7956,Mantova,0.5431692216939167
IT0612A,37.1226,15.1516,Priolo Gargallo,0.7496742652980837
IT1104A,45.1856,9.1469,Pavia,0.7358809818393893
IT1735A,45.0003,9.0094,Voghera,0.8568222191239525
IT1465A,45.5069,10.2161,Brescia,0.4874106108838972
IT0856A,44.4076,8.941,Genova,0.741634773108005
IT1698A,44.4049,8.9682,Genova,0.741634773108005
IT1869A,45.1644,10.7819,Mantova,0.5431692216939167
IT0852A,44.4255,8.826,Genova,0.741634773108005
IT0853A,44.4184,8.8862,Genova,0.741634773108005
IT0854A,44.4182,8.9274,Genova,0.741634773108005
IT0858A,44.3949,8.9915,Genova,0.741634773108005
IT1887A,44.4139,8.9119,Genova,0.741634773108005
IT1943A,44.3149,9.3236,Chiavari,0.6812938029531601
IT1944A,44.3914,8.6431,Cogoleto,0.8861156004013325
IT1999A,44.4274,8.8304,Genova,0.741634773108005
IT2022A,44.5647,9.1849,Propata,0.9875686906663996
IT1026A,44.5695,8.9468,Busalla,0.8293269824438058
IT1736A,45.0408,8.915,Cornale e Bastida,0.8979278414710785
IT1751A,44.574,8.951,Busalla,0.8293269824438058
IT0776A,45.8494,9.3958,Lecco,0.7140074847636105
IT0777A,45.698,9.4062,Merate,0.6506756582781469
IT1850A,44.4627,8.9014,Genova,0.741634773108005
IT1884A,44.4031,8.9501,Genova,0.741634773108005
IT1178A,44.5539,8.9459,Mignanego,0.9775856409872856
IT0775A,46.1372,9.385,Colico,0.5572022766092868
IT0771A,45.8044,9.0836,Como,0.4897858537545292
IT2039A,44.3517,9.2226,Rapallo,0.8840870817950512
IT1812A,45.9131,9.4969,Moggio,0.969578148912338
IT1826A,45.8494,9.3958,Lecco,0.7140074847636105
IT1734A,45.8408,9.3489,Valmadrera,0.6496218476370893
IT1648A,45.7272,9.1258,Cantù,0.4915733567057513
IT1549A,44.5186,8.8738,Campomorone,0.968211637202152
IT1153A,45.1328,10.0167,Cremona,0.7003144018207861
IT1459A,45.5829,8.8345,Busto Arsizio,0.4385692720085259
IT1739A,45.1422,10.0458,Cremona,0.7003144018207861
IT2063A,45.1483,9.9403,Spinadesco,0.8547584307515353
IT0732A,45.8361,8.8042,Varese,0.4950363586970639
IT0840A,45.2847,9.8642,Soresina,0.9038218967128544
IT0839A,45.3672,9.705,Crema,0.7145122431597728
IT0825A,41.9474,12.4696,Roma,0.6714880449041739
IT2014A,46.0158,9.2861,Perledo,0.6419860702600427
IT2095A,45.1095,10.0692,Cremona,0.7003144018207861
IT0828A,41.8831,12.509,Roma,0.6714880449041739
IT1588A,45.8169,8.8203,Varese,0.4950363586970639
IT0863A,42.4221,12.1092,Viterbo,0.965927628677488
IT1650A,45.6269,9.0242,Saronno,0.30936771103167543
IT0868A,41.4714,12.8933,Latina,0.8666186779008985
IT0869A,41.464,12.913,Latina,0.8666186779008985
IT1873A,45.6167,8.75,Ferno,0.2306983946099575
IT0870A,41.7469,13.1498,Anagni,0.9368626977863647
IT0884A,42.1579,11.909,Allumiere,0.9940825039355592
IT0885A,42.0916,11.8025,Civitavecchia,0.8112563461993223
IT0816A,37.0583,14.3169,Gela,0.9001659475319177
IT0871A,41.6879,13.2656,Ferentino,0.8996902053121961
IT0889A,41.725,13.0097,Colleferro,0.8028205419034685
IT0952A,41.8895,12.2663,Roma,0.6714880449041739
IT0865A,41.5954,12.6533,Aprilia,0.8542652377156357
IT0956A,41.8577,12.5687,Roma,0.6714880449041739
IT0992A,41.6692,13.6743,Fontechiari,1.0000000000000067
IT0864A,42.2892,12.415,Civita Castellana,0.9386826155054024
IT0887A,41.9956,12.7266,Guidonia Montecelio,0.7223928011142182
IT0872A,41.5716,13.3387,Ceccano,0.9175322236258102
IT0957A,41.9295,12.6585,Roma,0.6714880449041739
IT1200A,41.6243,13.3309,Frosinone,0.6444853134569866
IT0867A,42.4047,12.8578,Rieti,0.9380390433557919
IT1841A,41.7979,12.607,Ciampino,0.5155073488839373
IT0989A,42.5726,12.9621,Leonessa,0.9961530442840413
IT2013A,41.6396,13.349,Frosinone,0.6444853134569866
IT1411A,37.49,14.0633,Caltanissetta,0.9728239620296442
IT1836A,41.9064,12.4476,Roma,0.6714880449041739
IT1834A,41.9103,12.5489,Roma,0.6714880449041739
IT1837A,41.864,12.4696,Roma,0.6714880449041739
IT1176A,41.886,12.5416,Roma,0.6714880449041739
IT0953A,41.9329,12.5069,Roma,0.6714880449041739
IT2173A,41.2231,13.5705,,0.827570475368698
IT2174A,41.4511,12.8917,Latina,0.8666186779008985
IT1835A,41.9477,12.5337,Roma,0.6714880449041739
IT1184A,41.5314,12.9466,Latina,0.8666186779008985
IT0888A,41.7304,13.0041,Colleferro,0.8028205419034685
IT1183A,41.4885,13.8307,Cassino,0.9035904589634337
IT1906A,41.894,12.4754,Roma,0.6714880449041739
IT2023A,42.7366,11.8764,Acquapendente,0.9867229762613915
IT0991A,41.7273,13.3383,Alatri,0.9578986575729933
IT1282A,37.0728,14.2278,Gela,0.9001659475319177
IT2012A,41.8748,12.3456,Roma,0.6714880449041739
IT2175A,42.3018,12.4132,Civita Castellana,0.9386826155054024
IT2171A,42.0941,11.7954,Civitavecchia,0.8112563461993223
IT2172A,42.0993,11.7983,Civitavecchia,0.8112563461993223
IT1281A,37.4892,14.0547,Caltanissetta,0.9728239620296442
IT0906A,46.1672,9.8706,Sondrio,0.8277356271689241
IT1190A,46.1317,9.5664,Morbegno,0.8018781652846935
IT1967A,46.1686,9.8803,Sondrio,0.8277356271689241
IT0936A,40.9142,14.7856,Avellino,0.6954571176506058
IT1488A,41.0459,14.3781,Maddaloni,0.7447289793175239
IT0908A,46.4703,10.3725,Bormio,0.9546535486340686
IT0898A,40.8542,14.2513,Napoli,0.24795109203678736
IT1041A,40.6954,14.7775,Salerno,0.6809214186741926
IT1443A,37.4833,13.9911,San Cataldo,0.9501502213245239
IT1491A,40.8536,14.2717,Napoli,0.24795109203678736
IT0937A,41.1233,14.7883,Benevento,0.897824142533343
IT1496A,40.8494,14.2311,Napoli,0.24795109203678736
IT1497A,40.8637,14.2545,Napoli,0.24795109203678736
IT1486A,41.0844,14.3447,Caserta,0.6943543761284422
IT1495A,40.8723,14.2755,Napoli,0.24795109203678736
IT0897A,40.8444,14.2281,Napoli,0.24795109203678736
IT1492A,40.8497,14.2542,Napoli,0.24795109203678736
IT2210A,40.8355,14.8246,Solofra,0.8051970523710708
IT2211A,40.9797,14.401,Acerra,0.8249402121949635
IT0934A,41.1315,14.7894,Benevento,0.897824142533343
IT1487A,41.078,14.3312,Caserta,0.6943543761284422
IT1504A,40.6839,14.7697,Salerno,0.6809214186741926
IT2214A,40.7404,14.6435,Nocera Inferiore,0.696782752042267
IT2212A,40.9243,14.4813,San Vitaliano,0.7746555271952786
IT1493A,40.8643,14.3411,Napoli,0.24795109203678736
IT1485A,41.07,14.36,Caserta,0.6943543761284422
IT2219A,40.9411,14.3698,Acerra,0.8249402121949635
IT0935A,40.9233,14.7822,Avellino,0.6954571176506058
IT2216A,40.9146,14.2987,Casoria,0.17051284738762837
IT2213A,40.711,14.7024,Cava de' Tirreni,0.8149991690643661
IT2218A,40.9905,14.424,San Felice a Cancello,0.8333921477842361
IT0983A,45.7358,7.3242,Aosta,0.656824913064639
IT0988A,45.5966,7.7664,Donnas,0.968419904287092
IT0978A,45.7575,7.0369,Morgex,0.9665379986928144
IT0980A,45.7303,7.2989,Aosta,0.656824913064639
IT2233A,45.7344,7.3043,Aosta,0.656824913064639
IT1536A,44.116,9.8439,La Spezia,0.7134333461479642
IT1456A,44.1108,9.8321,La Spezia,0.7134333461479642
IT0938A,40.6667,14.8083,Salerno,0.6809214186741926
IT1661A,44.1547,9.9187,Santo Stefano di Magra,0.7140552783276908
IT1544A,44.1067,9.8577,La Spezia,0.7134333461479642
IT2234A,45.7307,7.3297,Aosta,0.656824913064639
IT0977A,45.7292,6.9778,La Thuile,0.9865207066319582
IT1144A,44.2871,8.4317,Quiliano,0.9451562807107808
IT0979A,45.8158,7.2353,Etroubles,0.9936300052471104
IT1143A,44.2725,8.4389,Vado Ligure,0.8324157607389575
IT1886A,44.1101,9.8159,La Spezia,0.7134333461479642
IT1548A,44.1831,9.8977,Bolano,0.864509629077202
IT1883A,44.3154,8.4854,Savona,0.8757986702946946
IT1662A,44.1236,9.7987,La Spezia,0.7134333461479642
IT1586A,40.6254,15.8117,Potenza,0.9296709355551371
IT1546A,44.0647,9.839,Portovenere,0.7145963482439416
IT1580A,44.3296,8.5102,Albisola Superiore,0.9053834130925459
IT1547A,44.1287,9.8657,La Spezia,0.7134333461479642
IT2229A,44.1109,9.955,Sarzana,0.7190966178329936
IT1145A,44.3127,8.4729,Savona,0.8757986702946946
IT1725A,45.7373,7.3426,Aosta,0.656824913064639
IT1457A,44.1016,9.8187,La Spezia,0.7134333461479642
IT2107A,44.3832,8.2838,Cairo Montenotte,0.9287055672776776
IT1192A,44.3653,8.2901,Carcare,0.781473370770724
IT2108A,44.3749,8.2987,Cairo Montenotte,0.9287055672776776
IT2038A,44.0526,8.2054,Albenga,0.8796658422479039
IT1232A,44.3824,8.2807,Cairo Montenotte,0.9287055672776776
IT1674A,40.6439,15.8729,Potenza,0.9296709355551371
IT1233A,44.3905,8.2015,Cengio,0.9097195074223753
IT1740A,41.0671,15.7227,Melfi,0.9425542961101406
IT1193A,40.9841,15.64,Melfi,0.9425542961101406
IT1583A,40.6492,15.7952,Potenza,0.9296709355551371
IT2155A,44.397,8.206,Cengio,0.9097195074223753
IT1741A,40.4858,16.4962,Ferrandina,0.9817571565889365
IT1742A,40.3141,15.9046,Viggiano,0.9792277899874392
IT1744A,40.6867,16.5471,Matera,0.9361426560458428
IT1976A,45.7331,7.3231,Aosta,0.656824913064639
IT2178A,45.6335,7.8436,Lillianes,0.9999999999999872
IT1585A,40.6279,15.7964,Potenza,0.9296709355551371
IT1080A,38.1103,13.3656,Palermo,0.42830273366861843
IT1895A,40.4204,16.5484,Pisticci,0.9734379668642971
IT2179A,45.7308,7.3099,Aosta,0.656824913064639
IT1691A,38.1356,13.3086,Palermo,0.42830273366861843
IT1897A,41.046,15.7876,Lavello,0.9724747769867329
IT2203A,40.3349,15.9007,Viggiano,0.9792277899874392
IT1207A,38.1369,13.3442,Palermo,0.42830273366861843
IT1208A,42.4519,14.1975,Pescara,0.3782818271219894
IT1423A,42.4564,14.2347,Pescara,0.3782818271219894
IT2202A,40.2884,15.8914,Grumento Nova,0.9245093711091225
IT2204A,40.3242,15.8674,Viggiano,0.9792277899874392
IT1287A,45.1586,9.6983,Codogno,0.7749339543481056
IT1264A,42.4664,14.2131,Pescara,0.3782818271219894
IT1288A,45.3086,9.5861,Abbadia Cerreto,0.9787353797898992
IT1965A,45.3028,9.4953,Lodi,0.7860480952104966
IT2205A,40.3156,15.9548,Viggiano,0.9792277899874392
IT1614A,40.4119,17.2839,Taranto,0.6429912987871315
IT2029A,43.82,7.7743,Sanremo,0.8904851684299362
IT1964A,45.235,9.6669,Bertonico,0.9067410540499314
IT2058A,41.1347,16.8453,Bari,0.44568838935646754
IT1646A,45.082,9.7139,San Rocco al Porto,0.8706812488527168
IT1624A,41.1006,16.8597,Bari,0.44568838935646754
IT2051A,41.0769,16.8658,Bari,0.44568838935646754
IT0267A,45.3294,9.4147,Tavazzano con Villavesco,0.8960106533892744
IT1598A,41.6283,15.9094,Manfredonia,0.9057448157052569
IT1601A,41.6653,15.945,Monte Sant'Angelo,0.9792666770559473
IT1286A,45.3053,9.4856,Lodi,0.7860480952104966
IT1657A,40.4856,18.0056,San Pietro Vernotico,0.9277380440204668
IT1658A,40.4881,18.0536,Torchiarolo,0.9042471324675598
IT1607A,40.5261,17.1736,Statte,0.8406154250285609
IT1610A,40.4233,17.2253,Taranto,0.6429912987871315
IT1611A,40.4886,17.2258,Taranto,0.6429912987871315
IT1617A,40.4233,17.8464,San Pancrazio Salentino,0.9424093121059636
IT1618A,40.6342,17.9478,Brindisi,0.8684213073189752
IT1606A,41.1136,16.8881,Bari,0.44568838935646754
IT1608A,40.5625,17.2033,Statte,0.8406154250285609
IT1343A,45.4625,10.9122,Verona,0.7111556124075101
IT1621A,41.1233,16.8733,Bari,0.44568838935646754
IT2019A,41.4539,15.5478,Foggia,0.9400293503276659
IT1603A,41.2003,16.605,Molfetta,0.8495105799771269
IT1660A,40.4944,17.2331,Taranto,0.6429912987871315
IT1665A,40.4589,18.1161,Lecce,0.8382146189821108
IT1613A,40.4606,17.2633,Taranto,0.6429912987871315
IT1609A,40.5211,17.2536,Taranto,0.6429912987871315
IT0470A,45.1041,7.6953,Torino,0.2272830473160316
IT0643A,44.9066,8.612,Alessandria,0.8443209994410374
IT0469A,45.0758,7.6782,Torino,0.2272830473160316
IT1664A,40.4185,17.9645,Guagnano,0.9548199104119305
IT1114A,45.1391,7.0501,Susa,0.7782548771303025
IT1120A,45.0069,7.5496,Orbassano,0.6415795435740423
IT1121A,45.1758,7.5602,Druento,0.8621719389202186
IT1125A,44.9513,7.6362,Vinovo,0.7383542668519536
IT1663A,40.5656,17.8083,Mesagne,0.9491420736737998
IT1519A,44.4122,8.1695,Saliceto,0.9797778821765715
IT1523A,44.9089,8.2055,Asti,0.8938634781569819
IT1128A,45.1546,7.658,Borgaro Torinese,0.6569226995830305
IT1524A,44.7037,8.0333,Alba,0.8338563192383304
IT1529A,44.3818,7.5382,Cuneo,0.8765093640907735
IT1130A,45.1432,7.7782,Settimo Torinese,0.5365988536757583
IT1903A,44.8942,8.1975,Asti,0.8938634781569819
IT1877A,45.0419,7.6259,Torino,0.2272830473160316
IT2101A,45.0028,7.8375,Chieri,0.8642442759238629
IT1878A,45.3189,8.4024,Vercelli,0.819496434536947
IT2102A,45.8988,8.4157,Omegna,0.7616812754100637
IT1246A,45.569,8.1876,Cossato,0.7874055107885696
IT2104A,45.6642,8.1598,Valdilana,0.8650579208330949
IT2116A,45.2948,8.0434,Cigliano,0.8734485456210903
IT1532A,45.7132,8.2835,Borgosesia,0.8732205230335258
IT1904A,44.7633,9.0524,Dernice,1.0000000000000016
IT1247A,45.5588,8.0564,Biella,0.7061466591596679
IT1533A,45.3284,8.4151,Vercelli,0.819496434536947
IT2117A,45.1763,7.7116,Leini,0.8129267867745148
IT1509A,45.4097,8.7861,Cerano,0.9236685200811331
IT1676A,45.4403,8.6197,Novara,0.7769021772468561
IT1948A,44.808,8.3103,Vinchio,1.0000000000000229
IT1510A,45.9303,8.5655,Verbania,0.3057112112562611
IT1788A,45.4512,7.878,Ivrea,0.6843872945351155
IT2121A,45.6894,8.4584,Borgomanero,0.7154004518460682
IT2128A,46.1276,8.2921,Domodossola,0.820867108147092
IT1582A,45.1361,8.4452,Casale Monferrato,0.8500555612693845
IT1830A,44.9203,8.6232,Alessandria,0.8443209994410374
IT1518A,45.4383,8.6206,Novara,0.7769021772468561
IT2119A,44.7197,7.4262,Revello,0.9816474080719859
IT1847A,45.0348,6.8359,Oulx,0.9822545100153564
IT1961A,46.3148,8.2559,Baceno,0.9675974523128261
IT2118A,44.4018,7.8146,Mondovì,0.9216763714168406
IT2168A,45.0249,7.6491,Torino,0.2272830473160316
IT1963A,45.4302,7.2454,Ceresole Reale,0.9745772888996778
IT2044A,40.3519,18.1767,Lecce,0.8382146189821108
IT1679A,40.5378,17.4239,Grottaglie,0.9211658846290393
IT1800A,42.0011,14.9936,Termoli,0.7862040348318188
IT2021A,40.5919,17.1158,Massafra,0.9419245316842901
IT1706A,44.3131,8.4773,Savona,0.8757986702946946
IT1753A,41.5578,14.6633,Campobasso,0.7909502410098547
IT1798A,41.5542,14.6747,Campobasso,0.7909502410098547
IT1932A,40.3644,18.1731,Lecce,0.8382146189821108
IT1801A,41.9981,14.9933,Termoli,0.7862040348318188
IT1799A,41.5669,14.6728,Campobasso,0.7909502410098547
IT1680A,40.7008,17.3319,Martina Franca,0.9816046989011358
IT1802A,41.5972,14.2336,Isernia,0.9568410042555167
IT1962A,41.4789,14.0333,Venafro,0.9410341922973325
IT1856A,42.3642,13.3831,L'Aquila,0.943121807271748
IT1724A,37.4842,15.0467,Catania,0.6101854116439788
IT1701A,40.6381,17.9383,Brindisi,0.8684213073189752
IT2180A,41.4845,14.4812,Bojano,0.942205120569056
IT1726A,37.6225,13.5825,Cammarata,0.9950617594990163
IT1763A,37.2992,13.5514,Agrigento,0.9083338083734429
IT0815A,37.0622,14.2842,Gela,0.9001659475319177
IT1804A,41.4842,14.0472,Venafro,0.9410341922973325
IT0817A,37.1459,14.3956,Niscemi,0.9590796062931086
IT1702A,40.6508,17.9436,Brindisi,0.8684213073189752
IT1806A,41.4189,14.5256,Guardiaregia,0.9917487741301426
IT1704A,40.6203,17.9781,Brindisi,0.8684213073189752
IT1721A,37.5258,15.0869,Catania,0.6101854116439788
IT1863A,41.7594,14.2089,Vastogirardi,0.9951404909290553
IT1076A,38.1205,13.3022,Palermo,0.42830273366861843
IT1889A,37.9779,13.688,Termini Imerese,0.8943142112705612
IT0611A,37.1824,15.1288,Melilli,0.8925243206573716
IT1666A,40.4044,18.0297,Campi Salentina,0.9296205261700505
IT1846A,37.3203,13.5828,Agrigento,0.9083338083734429
IT1953A,40.1681,18.1736,Galatina,0.8736660170080065
IT1890A,37.5641,14.2815,Enna,0.9757167692887279
IT1078A,38.111,13.3503,Palermo,0.42830273366861843
IT1766A,39.7138,16.194,Firmo,0.9428099147534046
IT0614A,37.1561,15.1909,Priolo Gargallo,0.7496742652980837
IT1079A,38.1244,13.3542,Palermo,0.42830273366861843
IT1898A,38.0124,12.5469,Trapani,0.8996433469720663
IT2078A,38.8705,16.6692,Simeri Crichi,0.9598099697613024
IT1823A,40.9533,16.9197,Casamassima,0.9395861601788001
IT1082A,38.1517,13.3316,Palermo,0.42830273366861843
IT0618A,37.2184,15.2205,Augusta,0.7246761563217579
IT1346A,37.0913,15.2853,Siracusa,0.8097655845449699
IT1348A,37.0678,15.2853,Siracusa,0.8097655845449699
IT1817A,40.9567,17.2903,Monopoli,0.941202936831016
IT1899A,37.5157,15.0108,Misterbianco,0.6800686412092202
IT1818A,40.8278,16.5603,Altamura,0.9719841433676859
IT1440A,37.094,15.2087,Siracusa,0.8097655845449699
IT1822A,41.2317,16.2917,Andria,0.9643220142394158
IT0620A,37.0984,15.2625,Siracusa,0.8097655845449699
IT1760A,37.3536,13.8447,Canicattì,0.9536824331504641
IT1997A,38.1906,15.2491,Milazzo,0.6415393626544872
IT1758A,36.7858,14.5619,Ragusa,0.9401290289715271
IT1764A,37.2886,13.5317,Porto Empedocle,0.785306983115312
IT1765A,37.2933,13.5336,Porto Empedocle,0.785306983115312
IT0813A,37.0703,14.2536,Gela,0.9001659475319177
IT1552A,38.1217,13.3293,Palermo,0.42830273366861843
IT1566A,37.0758,15.2786,Siracusa,0.8097655845449699
IT1718A,37.5158,15.0972,Catania,0.6101854116439788
IT1794A,38.2056,15.3101,Pace del Mela,0.6883427552781058
IT1888A,38.0502,13.1186,Partinico,0.9323925027213195
IT1829A,38.1983,15.5529,Messina,0.7922550306842249
IT2033A,36.9171,14.734,Ragusa,0.9401290289715271
IT2036A,36.9263,14.7145,Ragusa,0.9401290289715271
IT2052A,37.5293,15.0811,Catania,0.6101854116439788
IT2206A,37.0225,14.345,Gela,0.9001659475319177
IT1011A,42.56,12.6508,Terni,0.8619282109601496
IT2207A,37.0757,14.2238,Gela,0.9001659475319177
IT2064A,43.2739,12.6117,Gubbio,0.9824778429459825
IT2066A,43.3583,12.5572,Gubbio,0.9824778429459825
IT1180A,43.1031,12.3661,Perugia,0.8763448364149111
IT1901A,43.3528,12.5764,Gubbio,0.9824778429459825
IT2086A,39.3389,16.2433,Rende,0.7705019723758525
IT2004A,43.1044,12.3747,Perugia,0.8763448364149111
IT2087A,38.9596,16.2952,Lamezia Terme,0.8453831583268298
IT2089A,38.9183,16.5792,Catanzaro,0.8203371187744435
IT1902A,43.0669,12.4681,Torgiano,0.8928244106024497
IT2094A,38.3909,16.2345,Mammola,0.9955891456343924
IT1081A,38.0989,13.3917,Palermo,0.42830273366861843
IT2088A,39.0797,17.1229,Crotone,0.899375726187416
IT2067A,43.3178,12.6186,Gubbio,0.9824778429459825
IT2110A,39.4896,16.3868,Acri,0.9874367925173848
IT1182A,43.0889,12.4419,Perugia,0.8763448364149111
IT2111A,39.075,16.2314,Martirano Lombardo,0.9778127361178947
IT2030A,37.0559,14.2971,Gela,0.9001659475319177
IT2068A,42.7433,12.6664,Spoleto,0.9631072821393323
IT1365A,42.5819,12.6236,Terni,0.8619282109601496
IT1728A,42.5522,12.6517,Terni,0.8619282109601496
IT1745A,42.7447,12.7133,Spoleto,0.9631072821393323
IT2100A,43.1331,12.2058,Magione,0.7199389318934893
IT1860A,42.7397,12.7372,Spoleto,0.9631072821393323
IT1900A,42.9517,12.7078,Foligno,0.9239276275242398
IT2105A,43.4569,12.2458,Città di Castello,0.9697557639249965
IT2109A,42.5519,12.4197,Amelia,0.9778788626839076
IT2113A,42.7372,12.1367,Orvieto,0.9632539610521506
IT2114A,43.3675,12.5469,Gubbio,0.9824778429459825
IT2134A,42.5342,12.5219,Narni,0.9413842858436198
IT1938A,39.3134,16.2452,Cosenza,0.7500596397983501
IT1940A,38.2298,16.2552,Locri,0.8524259434095922
IT2031A,39.0681,17.1142,Crotone,0.899375726187416
IT2112A,39.1875,17.0103,Rocca di Neto,0.9669510233832097
IT2185A,39.4968,16.3858,Acri,0.9874367925173848
IT0187A,44.8425,11.6131,Ferrara,0.8839670089163019
IT2192A,39.1877,17.0098,Rocca di Neto,0.9669510233832097
IT2193A,38.483,15.9161,San Ferdinando,0.5933792055199225
IT0721A,44.636,10.9047,Modena,0.7625677035916806
IT2195A,39.107,17.1014,Crotone,0.899375726187416
IT2235A,38.8771,16.6576,Simeri Crichi,0.9598099697613024
IT1044A,44.0522,12.5756,Rimini,0.7613913816768982
IT2189A,39.0752,16.2322,Martirano Lombardo,0.9778127361178947
IT1105A,44.7883,10.3367,Parma,0.8193049521173735
IT0892A,44.4833,11.355,Bologna,0.5554967636670828
IT1152A,44.7994,10.8836,Carpi,0.8895256716374622
IT2191A,39.615,16.1606,Roggiano Gravina,0.9189835972555686
IT1029A,44.3556,11.7203,Imola,0.9127111693402857
IT1030A,44.2833,11.8706,Faenza,0.9351502646960149
IT1043A,44.0625,12.5533,Rimini,0.7613913816768982
IT1048A,44.2192,12.0489,Forlì,0.8691795299021947
IT0940A,44.6908,10.6647,Reggio nell'Emilia,0.8274053235684719
IT1908A,44.0958,12.4025,Savignano sul Rubicone,0.8372824535668465
IT1451A,44.6622,11.6394,Molinella,0.8926602791121966
IT0804A,44.7936,10.3317,Parma,0.8193049521173735
IT1670A,44.1392,12.2392,Cesena,0.9133248871349137
IT1672A,44.2997,10.4303,Villa Minozzo,0.9959240878735404
IT0544A,44.8239,9.8303,Lugagnano Val d'Arda,0.9737826109553522
IT1771A,44.6506,10.9063,Modena,0.7625677035916806
IT1159A,44.4997,11.3283,Bologna,0.5554967636670828
IT2237A,39.652,16.5413,Corigliano-Rossano,0.9496799436962723
IT0755A,44.215,12.0564,Forlì,0.8691795299021947
IT2238A,38.399,16.0718,Polistena,0.768660871334985
IT0895A,44.4286,12.1867,Ravenna,0.8324997612267996
IT2236A,39.711,16.2176,Altomonte,0.97704724736104
IT2018A,40.5275,17.5875,Francavilla Fontana,0.9764907329484583
IT1910A,44.9261,10.3708,Colorno,0.9295103776223584
IT1163A,44.4722,11.4164,San Lazzaro di Savena,0.8585404543893784
IT1919A,44.7417,11.9422,Ostellato,0.9471978136524519
IT1911A,44.6575,10.2889,Langhirano,0.9563853228944497
IT1179A,44.8397,11.9611,Jolanda di Savoia,0.9823838672870968
IT1921A,44.9278,11.1779,Mirandola,0.888053168556363
IT1923A,45.0489,9.6933,Piacenza,0.7179059777184548
IT0903A,44.5161,10.7339,Castellarano,0.8658572417906636
IT2186A,39.0043,16.3188,Platania,0.9831997755768076
IT1920A,44.5412,10.8189,Fiorano Modenese,0.6034814954062595
IT1914A,44.8731,10.6639,Guastalla,0.8977279200698469
IT1204A,44.42,12.2256,Ravenna,0.8324997612267996
IT1924A,44.9894,10.0192,Besenzone,1.0
IT1915A,43.9328,12.6275,San Clemente,0.9671995378647764
IT2190A,38.9342,16.8551,Botricello,0.8554317439018091
IT1927A,44.5265,11.9814,Alfonsine,0.953113702057218
IT1916A,44.0131,12.42,Verucchio,0.9195224837786059
IT1928A,44.2839,12.3322,Cervia,0.7439386465994008
IT1917A,44.7383,11.2997,Cento,0.8700017428570005
IT2187A,38.5775,16.3267,Serra San Bruno,0.9608141908052592
IT2194A,39.2165,17.1081,Strongoli,0.9418831895722213
IT1918A,44.825,11.6497,Ferrara,0.8839670089163019
IT1975A,45.0383,9.6692,Piacenza,0.7179059777184548
IT2188A,38.0471,15.8885,Roccaforte del Greco,0.9879190679006659
IT2027A,43.9275,12.2247,Sogliano al Rubicone,0.9943330575095831
IT2073A,44.5394,10.7914,Sassuolo,0.6850290330110606
IT2156A,44.7003,10.6228,Reggio nell'Emilia,0.8274053235684719
IT2158A,43.9081,12.4017,San Leo,0.9685013494454426
IT2074A,44.7347,9.3669,Corte Brugnatella,0.9946187778677522
IT2075A,44.5,11.2861,Bologna,0.5554967636670828
IT2097A,44.15,10.9261,Alto Reno Terme,0.9716255133882622
IT2130A,45.843,13.5431,Doberdò del Lago-Doberdob,0.954449505151517
IT1989A,38.1059,15.6452,Reggio di Calabria,0.843166665485206
IT2028A,38.105,15.6388,Reggio di Calabria,0.843166665485206
IT1977A,42.5175,14.1483,Montesilvano,0.678053013840861
IT2142A,41.5467,15.4408,Lucera,0.9663043137346836
IT2090A,39.6518,16.5468,Corigliano-Rossano,0.9496799436962723
IT2091A,38.869,16.6083,Catanzaro,0.8203371187744435
IT2003A,41.3167,16.2861,Barletta,0.9177355415697772
IT2131A,45.7316,13.4864,Grado,0.28534107171285983
IT2143A,40.9614,17.2842,Monopoli,0.941202936831016
IT2144A,41.1078,16.7661,Modugno,0.5203384459659328
IT2132A,45.8364,13.5011,Ronchi dei Legionari,0.661806690312544
IT2146A,41.1144,16.7878,Modugno,0.5203384459659328
IT2092A,38.6758,16.0983,Vibo Valentia,0.7875690951208723
IT2145A,41.0872,16.7817,Modugno,0.5203384459659328
IT2093A,38.6646,16.0802,Vibo Valentia,0.7875690951208723
IT1091A,45.6186,13.7944,Trieste,0.5602666717311581
IT1137A,45.6572,13.7722,Trieste,0.5602666717311581
IT1537A,45.65,13.7711,Trieste,0.5602666717311581
IT2148A,40.6492,17.5125,Ceglie Messapica,0.9801305076782033
IT2026A,38.3999,16.0702,Polistena,0.768660871334985
IT0966A,46.0661,13.2406,Udine,0.4743298912697118
IT1097A,45.8987,12.5363,Brugnera,0.7738577766849405
IT1099A,45.9622,12.6581,Pordenone,0.45570293078439933
IT2133A,45.7994,13.4233,Fiumicello Villa Vicentina,0.8903378990411609
IT2141A,41.6308,15.3867,San Severo,0.9786318226176176
IT1112A,45.9578,12.6187,Porcia,0.7301201043914467
IT2149A,40.7428,17.4158,Cisternino,0.9579880334918042
IT1168A,45.9733,13.3933,San Giovanni al Natisone,0.767465771275069
IT2151A,40.4894,18.0472,Torchiarolo,0.9042471324675598
IT1166A,46.4019,13.0111,Tolmezzo,0.9366068743620984
IT2150A,40.4033,18.125,Surbo,0.7884128755004116
IT2129A,45.8053,13.522,Monfalcone,0.3786676735564745
IT2139A,40.6458,17.9606,,0.827570475368698
IT2182A,46.5101,13.4748,Malborghetto Valbruna,0.9880282416527186
IT2137A,40.6314,17.9547,Brindisi,0.8684213073189752
IT1090A,45.6231,13.7875,Trieste,0.5602666717311581
IT2054A,36.7858,14.5614,Ragusa,0.9401290289715271
IT1170A,46.0351,13.2253,Udine,0.4743298912697118
IT2181A,45.7276,13.5416,Grado,0.28534107171285983
IT2200A,45.9509,12.5017,Sacile,0.7223691441118415
IT2076A,43.8439,12.6483,Mondaino,0.9979049362901498
IT2170A,45.8108,13.2622,Torviscosa,0.9151742408028921
IT0063A,42.9392,10.5342,Piombino,0.8543078736253804
IT1475A,45.6242,13.7803,Trieste,0.5602666717311581
IT2201A,45.9626,12.6559,Pordenone,0.45570293078439933
IT1474A,45.8439,13.5447,Doberdò del Lago-Doberdob,0.954449505151517
IT1587A,45.9369,13.6164,Gorizia,0.6533135702464281
IT0832A,43.4625,11.8767,Arezzo,0.943208319109467
IT2115A,45.8569,12.9259,Morsano al Tagliamento,0.9365203001843018
IT0862A,43.7867,11.2875,Firenze,0.4659849691312099
IT1476A,45.6303,13.7808,Trieste,0.5602666717311581
IT1538A,45.81,13.5289,Monfalcone,0.3786676735564745
IT0883A,43.7892,11.3239,Firenze,0.4659849691312099
IT1186A,43.8839,10.245,Viareggio,0.49056140566523554
IT0950A,43.4611,11.8889,Arezzo,0.943208319109467
IT1477A,45.6086,13.7506,,0.827570475368698
IT1001A,43.8439,10.5122,Lucca,0.8425610970681013
IT2152A,45.822,13.2714,Torviscosa,0.9151742408028921
IT1110A,43.7389,10.4017,Pisa,0.6826895441220071
IT0945A,43.8747,11.1053,Prato,0.6319849449115879
IT0860A,43.7858,11.2314,Firenze,0.4659849691312099
IT1071A,43.7131,10.7717,Santa Croce sull'Arno,0.6959271528167889
IT1560A,43.5547,10.3297,Livorno,0.6926788499006323
IT1187A,43.8408,10.5739,Capannori,0.8799061733149467
IT2140A,46.0708,13.2297,Udine,0.4743298912697118
IT0861A,43.7731,11.2722,Firenze,0.4659849691312099
IT1409A,43.7139,10.4106,Pisa,0.6826895441220071
IT2169A,45.8419,13.3019,Bagnaria Arsa,0.8926511647821511
IT1644A,43.8689,10.4536,Lucca,0.8425610970681013
IT0948A,43.7653,11.2492,Firenze,0.4659849691312099
IT1553A,43.9161,11.0069,Montale,0.9178105882119915
IT1557A,43.52,10.3217,Livorno,0.6926788499006323
IT1681A,43.6603,11.9017,Chitignano,0.9800388568481366
IT1571A,43.9408,10.9053,Pistoia,0.9154596973645168
IT1942A,42.6706,11.0942,Grosseto,0.9180402154058749
IT1149A,43.2478,10.8817,Pomarance,0.9842263863178715
IT2032A,43.4728,11.1419,Poggibonsi,0.911260330015317
IT1654A,43.8728,11.0919,Prato,0.6319849449115879
IT1551A,43.7569,11.1928,Scandicci,0.8430412479932433
IT2153A,43.7931,11.0978,Signa,0.6521509356125094
IT1819A,44.0783,10.0972,Carrara,0.6366022351160506
IT1593A,42.7786,11.1192,Grosseto,0.9180402154058749
IT2240A,43.8328,10.5005,Lucca,0.8425610970681013
IT2183A,43.5689,10.3327,Livorno,0.6926788499006323
IT2241A,44.0311,10.1328,Massa,0.6697342556299886
IT2184A,43.3378,11.325,Siena,0.9020996015672845
IT2239A,44.0055,10.5599,Bagni di Lucca,0.982643029171598
IT2154A,42.9319,10.5242,Piombino,0.8543078736253804
IT1243A,40.7103,8.5514,Sassari,0.9393269357182372
IT1277A,40.575,9.6944,Siniscola,0.9555746007986757
IT1309A,40.9283,9.5017,Olbia,0.881251918775029
IT1273A,39.2086,8.39,Portoscuso,0.7009235468002125
IT1375A,39.4436,9.0153,Nuraminis,0.9722475378778649
IT1947A,39.0667,9.0089,Sarroch,0.8785893249016565
IT1996A,40.2564,8.7731,Macomer,0.9563128569852415
IT1576A,39.2033,8.3861,Portoscuso,0.7009235468002125
IT1993A,39.2606,9.1364,Monserrato,0.48301723298648014
IT2009A,40.7244,8.5761,Sassari,0.9393269357182372
IT2008A,39.8853,8.6053,Santa Giusta,0.767749964172943
IT2010A,40.8314,8.4053,Porto Torres,0.7891807174987965
IT2005A,40.9275,9.4917,Olbia,0.881251918775029
IT2011A,39.8425,9.2164,Seulo,0.9953983244447631
IT2040A,39.2328,9.1881,Quartu Sant'Elena,0.6628153760357282
IT2049A,39.2864,9.0114,Assemini,0.7906041314568146
IT2056A,39.2358,9.115,Cagliari,0.08986538760110543
IT2059A,40.5533,8.3247,Alghero,0.9252959027735369
IT0963A,45.4992,12.2622,Venezia,0.18730745319593092
IT1177A,45.5606,11.5397,Vicenza,0.6551948483248939
IT0448A,45.4294,12.3139,Venezia,0.18730745319593092
IT1065A,45.7608,11.7367,Bassano del Grappa,0.6925114174691718
IT0663A,45.7144,11.3686,Schio,0.8158418585078954
IT1215A,45.0747,11.7833,Rovigo,0.8075258915438996
IT1213A,45.0467,12.0619,Adria,0.9162992157224878
IT1172A,45.4664,11.3872,Montebello Vicentino,0.8713779410367931
IT1214A,45.0397,11.7911,Rovigo,0.8075258915438996
IT1328A,45.8906,12.3081,Conegliano,0.7673325291036309
IT1336A,45.4453,10.9639,Verona,0.7111556124075101
IT0702A,44.6997,10.6244,Reggio nell'Emilia,0.8274053235684719
IT1222A,45.6303,12.5917,San Donà di Piave,0.8258940625448092
IT1340A,45.4,11.2861,San Bonifacio,0.765588535478691
IT1790A,46.1625,12.3608,Alpago,0.8756840548704068
IT1453A,45.3719,11.8419,Padova,0.4527675292804892
IT1619A,46.0308,11.9058,Feltre,0.9385078746911363
IT1791A,45.8483,11.5692,Asiago,0.9647265078604239
IT1535A,45.1836,11.3114,Legnago,0.8569153158010718
IT1848A,45.59,11.0378,Bosco Chiesanuova,0.9742323641114325
IT1590A,45.6725,12.2386,Treviso,0.5839407890733718
IT1833A,45.5364,11.2933,Chiampo,0.8183852319369858
IT1862A,45.4903,12.2183,Venezia,0.18730745319593092
IT1871A,45.2267,11.6658,Este,0.7995108256245337
IT1870A,45.29,11.6431,Cinto Euganeo,0.9998984626545289
IT1880A,45.4333,11.8906,Padova,0.4527675292804892
IT1838A,45.5458,11.5342,Vicenza,0.6551948483248939
IT1594A,46.1414,12.2169,Belluno,0.9438695455397553
IT2071A,45.6003,11.9022,Santa Giustina in Colle,0.8933467080700167
IT2072A,45.1039,11.5533,Badia Polesine,0.8647800817445985
IT0460A,43.5269,13.245,Jesi,0.8882385191666631
IT0461A,43.6333,13.3875,Falconara Marittima,0.6266168569144129
IT1936A,45.4383,12.2056,Venezia,0.18730745319593092
IT1596A,45.8369,12.5103,Mansuè,0.936304355230573
IT0459A,43.5989,13.3419,Chiaravalle,0.8130590801186771
IT1578A,43.8933,12.9189,Pesaro,0.8629221646738945
IT1773A,43.4681,12.9522,Genga,0.9888046254755418
IT1361A,43.8397,13.0186,Fano,0.8390979820812703
IT1795A,43.285,13.4286,Macerata,0.8956387410944642
IT2231A,45.6588,12.2161,Treviso,0.5839407890733718
IT1827A,43.6117,13.5086,Ancona,0.818159125892093
IT1842A,42.9006,13.3367,Montemonaco,0.9928355272626839
IT2070A,45.3775,11.94,Padova,0.4527675292804892
IT1843A,42.8486,13.6194,Ascoli Piceno,0.9149586323424165
IT1796A,43.3356,13.6747,Civitanova Marche,0.7498079293694468
IT1894A,42.9922,13.7847,Ripatransone,0.9889674861587021
IT2061A,43.7306,12.6364,Urbino,0.9810685522731357
IT2177A,42.9444,13.8794,San Benedetto del Tronto,0.6114226371964007
IT1946A,43.2561,13.4178,Macerata,0.8956387410944642
IT1174A,45.2828,8.9894,Motta Visconti,0.7792035709963878
IT2232A,45.5476,9.167,Cormano,0.21493694814254075
IT0737A,45.7136,10.0411,Tavernola Bergamasca,0.527083856456993
IT0837A,45.6331,9.5564,Filago,0.7243163944391636
IT0689A,45.0683,8.8689,Mezzana Bigli,0.9241283655261916
IT2230A,44.9247,10.5172,Viadana,0.8963553300122312
IT1746A,45.1144,8.875,Ferrera Erbognone,0.8525823896258599
IT2259A,44.4284,8.7977,Genova,0.741634773108005
IT2007A,45.8094,9.2228,Erba,0.6082173523062939
IT0842A,45.2792,10.0072,Corte de' Cortesi con Cignone,0.9694566413262939
IT2226A,40.9209,14.3895,Pomigliano d'Arco,0.4022302319026936
IT2227A,40.9188,14.7855,Avellino,0.6954571176506058
IT2215A,41.1469,14.8361,Benevento,0.897824142533343
IT2269A,40.6614,14.8045,Salerno,0.6809214186741926
IT2270A,40.8159,14.3493,Portici,0.20421415016679131
IT2228A,41.1157,14.78,Benevento,0.897824142533343
IT2217A,40.7606,14.4382,Torre Annunziata,0.17541798387495286
IT2271A,40.9755,14.2114,Aversa,0.3450511455426631
IT2268A,40.6111,14.9758,Battipaglia,0.8220967741906742
IT2266A,45.7422,7.3156,Aosta,0.656824913064639
IT2267A,45.6102,7.3549,Cogne,0.9976687691703299
IT2161A,41.7794,14.1036,Castel di Sangro,0.9764482468595199
IT0792A,38.1605,15.275,Santa Lucia del Mela,0.9830893679964278
IT2274A,37.2919,13.5325,Porto Empedocle,0.785306983115312
IT2275A,38.1743,15.5465,Messina,0.7922550306842249
IT2209A,44.2856,11.8734,Faenza,0.9351502646960149
IT1592A,42.7625,11.11,Grosseto,0.9180402154058749
IT2242A,43.623,11.4669,Figline e Incisa Valdarno,0.9253166188981934
IT2243A,45.433,11.0301,Verona,0.7111556124075101
IT2250A,42.1022,11.7844,Civitavecchia,0.8112563461993223
IT2251A,42.0988,11.8177,Civitavecchia,0.8112563461993223
IT2252A,42.0818,11.8094,Civitavecchia,0.8112563461993223
IT2249A,42.16,11.7427,Civitavecchia,0.8112563461993223
IT2257A,42.2686,11.8943,Monte Romano,0.9944202632994901
IT2255A,42.1525,11.9356,Tolfa,0.993812671037408
IT2220A,41.1686,14.1508,Pignataro Maggiore,0.9150446168255197
IT2221A,40.8449,14.2057,Napoli,0.24795109203678736
IT2222A,41.1853,14.0922,Sparanise,0.8888620824530421
IT2223A,40.8864,14.35,Volla,0.37620565566748787
IT2224A,40.991,14.2028,Teverola,0.5125852657116593
IT2225A,40.9951,14.287,Orta di Atella,0.7299634136397429
IT2272A,40.8229,14.1225,Pozzuoli,0.6296079742671159
IT2273A,40.487,15.5283,Polla,0.9361874563466961
IT2276A,41.156,15.0968,Ariano Irpino,0.9754734683856956
IT2278A,44.3329,8.512,Albisola Superiore,0.9053834130925459
IT1420A,42.1417,14.4411,Atessa,0.9520585473377123
IT1687A,40.3463,18.0951,Arnesano,0.9204614517255828
IT2159A,42.33,13.4894,L'Aquila,0.943121807271748
IT2160A,42.4128,13.3508,L'Aquila,0.943121807271748
IT1857A,42.6572,13.7094,Teramo,0.944306030319629
IT2162A,42.6656,13.7261,Teramo,0.944306030319629
IT2281A,37.307,13.594,Agrigento,0.9083338083734429
IT2166A,42.3461,14.1378,Chieti,0.7853973104637432
IT2167A,42.4214,14.2792,Francavilla al Mare,0.8130268018005964
IT2163A,42.1194,14.0289,Sant'Eufemia a Maiella,0.9915046647337135
IT2164A,42.3581,14.0678,Cepagatti,0.8968516933343663
IT2165A,42.2931,14.3558,Ortona,0.9184924655167135
IT2245A,46.1438,12.2128,Belluno,0.9438695455397553
IT2279A,46.6876,11.6333,Bressanone/Brixen,0.948274830336153
IT2246A,41.7748,12.2234,Fiumicino,0.8088914853560846
IT2247A,41.7682,12.237,Fiumicino,0.8088914853560846
IT2248A,42.1373,11.7932,Civitavecchia,0.8112563461993223
IT2253A,42.0736,11.8159,Civitavecchia,0.8112563461993223
IT2254A,42.161,11.9,Allumiere,0.9940825039355592
IT2264A,42.0969,11.7883,Civitavecchia,0.8112563461993223
IT2265A,42.0868,11.8065,Civitavecchia,0.8112563461993223
IT2277A,40.7989,14.1794,Napoli,0.24795109203678736
IT2284A,45.7324,7.3219,Aosta,0.656824913064639
IT2286A,44.2618,8.4457,Vado Ligure,0.8324157607389575
IT2290A,40.364,16.0975,Guardia Perticara,1.000000000000008
IT2291A,40.6205,16.1474,Tricarico,0.9946283055772173
IT0794A,38.183,15.3015,Pace del Mela,0.6883427552781058
IT1449A,38.1746,15.2714,San Filippo del Mela,0.567525878373139
IT2287A,38.1307,13.3465,Palermo,0.42830273366861843
IT2288A,38.2315,15.2476,Milazzo,0.6415393626544872
IT2099A,42.8047,12.5661,Giano dell'Umbria,0.9777700802155636
IT2260A,45.6473,13.855,Trieste,0.5602666717311581
IT2261A,45.6544,13.789,Trieste,0.5602666717311581
IT2262A,45.6423,13.7561,Trieste,0.5602666717311581
IT2280A,45.6405,13.7661,Trieste,0.5602666717311581
IT1259A,46.2208,13.0667,Osoppo,0.9064208553181647
IT2263A,45.6206,13.7838,Trieste,0.5602666717311581
IT1220A,39.0806,8.4547,Sant'Antioco,0.8237970596097595
IT1278A,39.2383,8.9839,Assemini,0.7906041314568146
IT1280A,39.9294,9.6806,Tortolì,0.7642229964118635
IT1307A,39.3833,8.9414,Villasor,0.9053139221933649
IT1269A,39.07,9.0167,Sarroch,0.8785893249016565
IT1347A,40.815,8.3603,Porto Torres,0.7891807174987965
IT1270A,39.0817,9.0122,Sarroch,0.8785893249016565
IT1350A,40.7297,8.5536,Sassari,0.9393269357182372
IT1397A,39.2269,8.9958,Assemini,0.7906041314568146
IT1407A,40.2372,9.0325,Ottana,0.8963027971954444
IT1377A,39.9092,8.5947,Oristano,0.858405728173665
IT1378A,39.8989,8.5978,Oristano,0.858405728173665
IT1575A,39.1772,8.4303,Portoscuso,0.7009235468002125
IT1427A,40.3189,9.3289,Nuoro,0.9478865291073025
IT1383A,40.8319,8.3939,Porto Torres,0.7891807174987965
IT1396A,39.2086,8.3861,Portoscuso,0.7009235468002125
IT1992A,39.3111,8.5414,Iglesias,0.9450255295535591
IT1428A,40.3206,9.3217,Nuoro,0.9478865291073025
IT2055A,40.7167,8.5692,Sassari,0.9393269357182372
IT2006A,39.1656,8.5214,Carbonia,0.9218066232627713
IT1994A,39.5467,8.7942,San Gavino Monreale,0.9662593885451369
IT1998A,39.2242,8.4325,Gonnesa,0.9231506313173706
IT2060A,40.8092,8.2753,Sassari,0.9393269357182372
IT1905A,45.5319,11.5219,Vicenza,0.6551948483248939
IT2289A,43.6059,13.4923,Ancona,0.818159125892093
IT2285A,46.2641,11.2232,Cortina sulla strada del vino/Kurtinig an der Weinstraße,0.8715307888518058
IT2258A,42.0424,11.8335,Santa Marinella,0.8899778218274118
IT2283A,40.4706,15.2987,Ottati,0.9951859801341941
IT1882A,43.8141,7.7727,,0.827570475368698
IT2292A,44.082,7.8639,Pornassio,1.0000000000000129
IT2282A,45.4397,8.6204,Novara,0.7769021772468561
IT1539A,46.5072,12.9317,Ravascletto,0.9885197137482821
IT1107A,45.9659,12.4446,Caneva,0.8891035755780446
IT2298A,44.5084,8.7046,Masone,0.9682045031754579
IT2297A,38.1051,13.3465,Palermo,0.42830273366861843
IT2300A,45.5386,10.2319,Brescia,0.4874106108838972
IT2301A,45.5087,10.2564,Brescia,0.4874106108838972
IT2299A,44.3995,8.281,Cairo Montenotte,0.9287055672776776
IT2303A,44.2531,8.4426,Bergeggi,0.6416379737012634
IT2304A,44.3776,8.41,Savona,0.8757986702946946
IT2294A,44.7043,7.6853,Cavallermaggiore,0.9757913222047889
IT2318A,37.8825,12.718,Trapani,0.8996433469720663
IT2312A,37.0651,14.2613,Gela,0.9001659475319177
IT2313A,35.5028,12.5979,Lampedusa e Linosa,0.6531812890109658
IT2310A,37.4898,14.0511,Caltanissetta,0.9728239620296442
IT2311A,37.5116,15.0752,Catania,0.6101854116439788
IT2314A,36.7295,14.8387,Pozzallo,0.6939397688815329
IT2306A,37.3064,13.5899,Agrigento,0.9083338083734429
IT2307A,37.2992,13.5516,Agrigento,0.9083338083734429
IT2315A,37.5787,15.1011,San Giovanni la Punta,0.3537461685874096
IT2308A,38.0861,13.5041,Bagheria,0.7217239579091136
IT2309A,38.1603,15.2312,Barcellona Pozzo di Gotto,0.8331572881955416
IT2317A,37.0858,15.268,Siracusa,0.8097655845449699
IT2316A,37.0963,15.1318,Solarino,0.9351358052128314
IT1934A,45.4756,12.2208,Venezia,0.18730745319593092
IT2319A,45.4356,12.3231,Venezia,0.18730745319593092
IT2320A,45.4784,11.3782,Zermeghedo,0.6687340832331808
IT2302A,44.3191,9.3295,Chiavari,0.6812938029531601
IT2323A,44.5678,8.949,Busalla,0.8293269824438058
IT2305A,42.1529,11.9235,Tolfa,0.993812671037408
IT2322A,42.5723,12.6789,Terni,0.8619282109601496
IT2324A,45.9365,13.6161,Gorizia,0.6533135702464281
IT2293A,45.803,13.5445,Monfalcone,0.3786676735564745
IT2327A,44.4344,8.8925,Genova,0.741634773108005
IT2329A,41.7319,13.1404,Anagni,0.9368626977863647
IT2321A,45.9575,12.5082,Sacile,0.7223691441118415
IT2325A,45.7956,13.1466,Carlino,0.8971361389791749
IT2326A,45.8202,13.2175,San Giorgio di Nogaro,0.6434743972048166
IT2333A,45.8763,10.1788,Darfo Boario Terme,0.8853826564359722
IT2338A,44.4636,8.9039,Genova,0.741634773108005
IT2339A,44.4044,8.9656,Genova,0.741634773108005
IT2334A,42.025,11.9534,Santa Marinella,0.8899778218274118
IT2337A,44.0645,9.8387,Portovenere,0.7145963482439416
IT2335A,40.3884,16.035,Corleto Perticara,0.9884544822469096
IT2336A,40.4044,16.1191,Gorgoglione,0.9921868911890085
